City_ID,City,Lat,Lng,Max Temp,Humidity,Cloudiness,Wind Speed,Country,Date
0,port-aux-francais,-49.35,70.2167,6.84,95,100,18.99,TF,1732400778
1,waitangi,-43.9535,-176.5597,11.57,77,76,4.92,NZ,1732400778
2,lihue,21.9789,-159.3672,25.97,65,0,3.6,US,1732400794
3,grytviken,-54.2811,-36.5092,8.45,87,100,6.32,GS,1732400775
4,quellon,-43.1167,-73.6167,11.18,89,99,0.6,CL,1732400865
5,tibiri,13.5627,7.0485,22.69,18,11,4.25,NE,1732400865
6,kurchatov,51.6601,35.6521,-1.18,85,100,6.56,RU,1732400865
7,bulakamba,-6.8748,108.9559,26.34,82,100,3.08,ID,1732400655
8,flying fish cove,-10.4217,105.6791,27.15,79,100,0.77,CX,1732400848
9,haenam,34.5711,126.5989,7.57,62,98,1.87,KR,1732400865
10,puerto ayora,-0.7393,-90.3518,24.19,82,22,4.02,EC,1732400775
11,petropavlovsk-kamchatsky,53.0452,158.6483,-6.67,73,75,2.0,RU,1732400781
12,petrovsk-zabaykal'skiy,51.273,108.843,-14.31,84,100,5.24,RU,1732400866
13,tiksi,71.6872,128.8694,-27.0,98,14,4.17,RU,1732400775
14,puerto natales,-51.7236,-72.4875,9.25,53,20,9.26,CL,1732400786
15,bubaque,11.2833,-15.8333,28.33,68,83,5.23,GW,1732400840
16,iqaluit,63.7506,-68.5145,-3.15,92,100,2.06,CA,1732400786
17,howrah,22.5892,88.3103,19.0,82,40,0.0,IN,1732400781
18,edinburgh of the seven seas,-37.0676,-12.3116,12.64,63,33,7.27,SH,1732400775
19,matoury,4.8483,-52.3317,26.98,94,20,1.54,GF,1732400867
20,coquimbo,-29.9533,-71.3436,15.55,73,75,4.63,CL,1732400850
21,carnarvon,-24.8667,113.6333,23.1,78,29,8.25,AU,1732400784
22,ribeira grande,38.5167,-28.7,15.99,83,85,8.94,PT,1732400793
23,bethel,41.3712,-73.414,8.05,66,0,6.69,US,1732400786
24,hawaiian paradise park,19.5933,-154.9731,26.04,83,0,4.63,US,1732400779
25,canutama,-6.5339,-64.3831,27.85,76,95,1.74,BR,1732400868
26,lichtenburg,-26.152,26.1597,21.58,30,39,3.55,ZA,1732400713
27,adamstown,-25.066,-130.1015,22.63,73,83,6.63,PN,1732400779
28,moyynkum,44.2914,72.9469,-0.95,42,0,11.58,KZ,1732400868
29,portland,45.5234,-122.6762,10.45,86,75,3.09,US,1732400550
30,selfoss,63.9331,-20.9971,-7.75,66,0,5.96,IS,1732400817
31,mahdia,35.5047,11.0622,16.58,57,39,3.9,TN,1732400869
32,nizhnyaya tura,58.6293,59.8118,2.51,71,100,4.83,RU,1732400869
33,qurayyat,31.3318,37.3428,12.1,40,0,2.06,SA,1732400869
34,kavieng,-2.5744,150.7967,28.86,76,38,3.89,PG,1732400835
35,lorengau,-2.0226,147.2712,28.81,77,61,2.26,PG,1732400847
36,nushki,29.5542,66.0215,13.0,35,36,1.1,PK,1732400869
37,fort mcmurray,56.7268,-111.381,-13.23,85,100,2.06,CA,1732400725
38,remire-montjoly,4.9167,-52.2667,27.02,94,20,1.54,GF,1732400847
39,gadzhiyevo,69.2551,33.3362,-2.62,78,66,14.69,RU,1732400802
40,port mathurin,-19.6833,63.4167,24.66,75,8,8.06,MU,1732400799
41,chifeng,42.2683,118.9636,-0.32,84,7,2.56,CN,1732400870
42,namibe,-15.1961,12.1522,23.97,78,80,1.61,AO,1732400803
43,buurhakaba,2.8026,44.0781,24.87,84,98,2.55,SO,1732400870
44,longyearbyen,78.2186,15.6401,-6.09,73,75,2.06,SJ,1732400568
45,papatowai,-46.5619,169.4708,14.89,39,78,1.13,NZ,1732400793
46,qaqortoq,60.7167,-46.0333,-13.12,73,0,2.98,GL,1732400792
47,salekhard,66.53,66.6019,-11.36,98,99,2.23,RU,1732400871
48,kayar,14.9192,-17.1211,25.53,68,61,5.17,SN,1732400871
49,pandan,14.0453,124.1694,26.04,85,99,4.89,PH,1732400871
50,mugia,43.1041,-9.2179,21.62,69,82,17.2,ES,1732400776
51,monroeville,40.4212,-79.7881,6.14,88,100,4.12,US,1732400682
52,invercargill,-46.4,168.35,13.34,68,89,1.79,NZ,1732400774
53,badger,64.8,-147.5333,-10.01,86,20,2.57,US,1732400776
54,whitehorse,60.7161,-135.0538,-17.21,84,20,0.0,CA,1732400777
55,olonkinbyen,70.9221,-8.7187,-3.65,56,41,8.15,SJ,1732400804
56,happy valley-goose bay,53.3168,-60.3315,-0.83,93,100,5.14,CA,1732400872
57,hamilton,39.1834,-84.5333,6.69,85,100,3.09,US,1732400686
58,stanley,54.868,-1.6985,10.66,96,40,3.09,GB,1732400780
59,mandiana,10.6333,-8.6833,24.17,25,65,1.43,GN,1732400873
60,tazovsky,67.4667,78.7,-10.03,94,20,4.4,RU,1732400849
61,codrington,-38.2667,141.9667,16.81,90,100,3.14,AU,1732400849
62,amahai,-3.3333,128.9167,26.72,82,97,1.89,ID,1732400873
63,ancud,-41.8697,-73.8203,12.05,94,82,2.36,CL,1732400830
64,laguna,38.421,-121.4238,15.1,81,40,3.6,US,1732400826
65,enewetak,11.3474,162.3373,28.41,78,82,7.66,MH,1732400787
66,ust-nera,64.5667,143.2,-32.31,98,71,2.18,RU,1732400798
67,port elizabeth,-33.918,25.5701,17.4,94,0,1.54,ZA,1732400781
68,walvis bay,-22.9575,14.5053,15.53,88,3,1.54,NA,1732400874
69,magadan,59.5667,150.8,-12.53,70,6,2.65,RU,1732400874
70,saint-pierre,-21.3393,55.4781,24.82,83,9,2.06,RE,1732400814
71,thompson,55.7435,-97.8558,-13.91,85,40,3.09,CA,1732400776
72,wailua homesteads,22.0669,-159.378,25.63,69,0,3.6,US,1732400774
73,iskateley,67.6803,53.1512,-2.83,96,100,7.69,RU,1732400788
74,tres arroyos,-38.3739,-60.2798,27.58,39,58,5.9,AR,1732400875
75,hermanus,-34.4187,19.2345,16.0,84,61,3.25,ZA,1732400790
76,arteche,12.2645,125.4048,26.31,88,69,4.36,PH,1732400849
77,bredasdorp,-34.5322,20.0403,16.97,92,38,1.38,ZA,1732400784
78,curuzu cuatia,-29.7917,-58.0546,26.09,68,0,3.48,AR,1732400862
79,seryshevo,51.0933,128.3786,-8.23,93,100,2.46,RU,1732400875
80,jamestown,42.097,-79.2353,5.57,96,100,5.66,US,1732400565
81,tshabong,-26.05,22.45,28.47,13,4,4.16,BW,1732400876
82,albany,42.6001,-73.9662,6.43,65,77,2.24,US,1732400780
83,kismayo,-0.3582,42.5454,26.94,80,86,3.31,SO,1732400804
84,margaret river,-33.95,115.0667,11.92,76,1,3.61,AU,1732400784
85,malango,-2.9627,119.9001,19.65,99,100,0.53,ID,1732400876
86,rongelap,11.1635,166.8941,28.31,79,81,8.31,MH,1732400877
87,mahina,-17.5065,-149.489,29.87,74,75,4.12,PF,1732400877
88,vorgashor,67.5833,63.95,-8.5,87,100,3.84,RU,1732400778
89,talnakh,69.4865,88.3972,-13.31,94,100,6.79,RU,1732400785
90,uturoa,-16.7333,-151.4333,27.05,80,98,5.67,PF,1732400831
91,new norfolk,-42.7826,147.0587,14.4,68,64,1.43,AU,1732400877
92,alice springs,-23.7,133.8833,19.75,94,100,3.09,AU,1732400805
93,hasaki,35.7333,140.8333,12.37,55,64,8.42,JP,1732400782
94,terme,41.2092,36.9739,6.49,93,100,6.99,TR,1732400878
95,yellowknife,62.456,-114.3525,-14.71,78,75,2.06,CA,1732400789
96,talara,-4.5772,-81.2719,24.42,64,0,5.14,PE,1732400805
97,blackmans bay,-43.0167,147.3167,13.74,90,93,0.45,AU,1732400779
98,champerico,14.3,-91.9167,27.28,73,100,1.8,GT,1732400878
99,bamboo flat,11.7,92.7167,27.27,78,97,6.54,IN,1732400847
100,bilibino,68.0546,166.4372,-27.91,95,19,1.6,RU,1732400777
101,georgetown,5.4112,100.3354,26.96,87,20,1.03,MY,1732400813
102,port alfred,-33.5906,26.891,18.99,93,79,1.99,ZA,1732400854
103,chernyshevskiy,63.0128,112.4714,-32.27,100,98,1.46,RU,1732400879
104,taltal,-25.4,-70.4833,19.04,70,29,3.36,CL,1732400814
105,lata,40.1629,-8.3327,15.49,61,100,5.94,PT,1732400879
106,price,39.5994,-110.8107,8.59,19,0,0.0,US,1732400879
107,mariental,-24.6333,17.9667,28.62,24,9,1.96,NA,1732400880
108,udachny,66.4167,112.4,-24.99,92,97,1.41,RU,1732400782
109,tomohon,1.3346,124.8392,19.52,93,100,0.88,ID,1732400880
110,es castell,39.8795,4.2854,17.38,63,100,6.17,ES,1732400811
111,constantia,44.1833,28.65,0.39,66,53,7.1,RO,1732400798
112,flin flon,54.7682,-101.865,-12.09,79,100,3.6,CA,1732400793
113,st. john's,47.5649,-52.7093,6.75,96,100,10.29,CA,1732400775
114,monrovia,6.3005,-10.7969,26.34,84,6,2.65,LR,1732400880
115,lebu,-37.6167,-73.65,16.08,80,53,3.08,CL,1732400780
116,galle,6.0367,80.217,27.74,80,100,1.08,LK,1732400881
117,pueblo,38.2545,-104.6091,20.87,20,0,2.57,US,1732400779
118,kotabumi,-4.8333,104.9,24.05,92,96,1.45,ID,1732400881
119,buinsk,54.95,48.2833,5.23,66,100,10.3,RU,1732400881
120,chibougamau,49.9168,-74.3659,0.79,93,100,0.0,CA,1732400785
121,san antonio de pale,-1.4014,5.6325,26.08,83,83,4.54,GQ,1732400809
122,mount isa,-20.7333,139.5,29.87,42,9,3.6,AU,1732400808
123,haiku-pauwela,20.9219,-156.3051,25.58,75,68,0.45,US,1732400820
124,kyabe,9.4515,18.9449,24.79,27,67,1.24,TD,1732400882
125,raduzhnyy,62.0961,77.475,-6.94,98,100,2.48,RU,1732400882
126,ust'-ilimsk,58.0006,102.6619,-18.23,93,100,3.98,RU,1732400815
127,saipan,15.1355,145.701,29.39,81,40,6.69,MP,1732400782
128,west island,-12.1568,96.8225,25.99,94,75,7.72,CC,1732400797
129,atafu village,-8.5421,-172.5159,28.71,72,90,8.62,TK,1732400783
130,ola,59.5833,151.2833,-14.48,78,5,3.82,RU,1732400883
131,zaozersk,69.4005,32.4476,-2.78,86,84,15.66,RU,1732400883
132,andovoranto,-18.95,49.1,24.13,92,94,2.43,MG,1732400883
133,cabo san lucas,22.8909,-109.9124,28.17,47,0,5.14,MX,1732400839
134,hobyo,5.3505,48.5268,26.5,80,11,6.44,SO,1732400884
135,labrador city,52.9463,-66.9114,-4.05,88,100,4.92,CA,1732400812
136,utrik,11.2278,169.8474,27.88,80,100,8.39,MH,1732400819
137,port lincoln,-34.7333,135.8667,17.52,84,100,3.29,AU,1732400811
138,plastun,44.7561,136.2939,-6.77,61,2,3.09,RU,1732400884
139,tavda,58.0425,65.2726,-1.62,80,100,3.5,RU,1732400884
140,isafjordur,66.0755,-23.124,-5.43,69,58,6.52,IS,1732400782
141,port moresby,-9.4431,147.1797,26.68,83,20,2.06,PG,1732400810
142,ikwiriri,-7.9562,38.9716,23.15,96,6,0.4,TZ,1732400885
143,nova sintra,14.8667,-24.7167,25.77,74,43,1.61,CV,1732400787
144,pontes e lacerda,-15.2261,-59.3353,25.21,87,100,1.44,BR,1732400885
145,ushuaia,-54.8,-68.3,4.81,87,100,4.63,AR,1732400692
146,tsiombe,-25.3,45.4833,22.34,96,2,0.59,MG,1732400819
147,kavaratti,10.5669,72.642,28.17,69,77,6.58,IN,1732400816
148,abdanan,32.9926,47.4198,13.28,37,0,1.17,IR,1732400886
149,college,64.8569,-147.8028,-9.75,82,75,2.57,US,1732400796
150,dunedin,-45.8742,170.5036,14.89,67,52,3.58,NZ,1732400779
151,harstad,68.799,16.5293,0.64,95,100,5.27,NO,1732400886
152,al ghayzah,16.2079,52.176,24.43,74,20,0.63,YE,1732400886
153,avarua,-21.2078,-159.775,26.03,69,91,7.72,CK,1732400775
154,ilulissat,69.2167,-51.1,-4.99,39,75,4.12,GL,1732400790
155,brookings,44.3114,-96.7984,1.0,86,0,6.17,US,1732400788
156,cam ranh,11.9214,109.1591,24.98,94,20,2.06,VN,1732400887
157,balkashino,52.5167,68.7667,-11.29,93,14,1.41,KZ,1732400887
158,boquira,-12.8231,-42.7306,24.14,74,92,0.98,BR,1732400887
159,al majaridah,19.1236,41.9111,26.69,75,15,1.45,SA,1732400887
160,gondar,12.6,37.4667,16.26,70,100,1.39,ET,1732400887
161,kone,-21.0595,164.8658,24.0,82,100,2.42,NC,1732400839
162,tara,56.8944,74.371,-5.81,89,100,2.56,RU,1732400888
163,mathba,22.2855,89.9629,17.32,74,8,2.33,BD,1732400888
164,floro,61.5996,5.0328,1.98,69,100,6.17,NO,1732400888
165,burao,9.5221,45.5336,19.39,49,3,4.03,SO,1732400888
166,griffith,41.5284,-87.4237,4.91,82,100,4.63,US,1732400888
167,smithers,54.7804,-127.1743,-5.82,73,100,1.54,CA,1732400788
168,airuk,7.2772,168.8203,27.38,74,99,2.02,MH,1732400889
169,yulinshi,38.2906,109.7494,3.88,89,100,2.89,CN,1732400889
170,kimbe,-5.5502,150.1429,28.59,76,46,0.71,PG,1732400889
171,ushtobe,45.2514,77.9838,-3.5,60,0,7.14,KZ,1732400889
172,kodiak,57.79,-152.4072,3.73,70,0,0.0,US,1732400785
173,mount gambier,-37.8333,140.7667,17.04,86,100,2.55,AU,1732400846
174,east london,-33.0153,27.9116,21.13,77,98,3.28,ZA,1732400842
175,afaahiti,-17.75,-149.2833,25.29,86,38,7.24,PF,1732400783
176,praia da vitoria,38.7333,-27.0667,16.14,77,75,12.09,PT,1732400890
177,kitimat,54.0524,-128.6534,-2.28,67,100,3.18,CA,1732400890
178,nar'yan-mar,67.6713,53.087,-2.81,96,100,7.68,RU,1732400804
179,ishigaki,24.3448,124.1572,23.07,68,75,7.2,JP,1732400890
180,pisco,-13.7,-76.2167,21.03,78,0,9.77,PE,1732400818
181,isangel,-19.55,169.2667,26.29,82,100,6.4,VU,1732400891
182,kristiansund,63.1115,7.732,-0.49,93,94,1.54,NO,1732400859
183,revda,56.801,59.9303,2.27,54,100,3.32,RU,1732400891
184,aasiaat,68.7098,-52.8699,-14.98,69,57,1.86,GL,1732400807
185,reggane,26.7158,0.1714,21.22,23,0,3.73,DZ,1732400891
186,nizhnyaya poyma,56.1622,97.1933,-15.84,76,60,3.08,RU,1732400891
187,noosa heads,-26.3833,153.15,23.06,68,26,4.45,AU,1732400892
188,mili,6.0815,171.735,28.1,75,75,2.0,MH,1732400789
189,zouerate,22.7187,-12.4521,26.26,17,27,4.17,MR,1732400593
190,kharabali,47.4196,47.2568,6.21,71,28,8.73,RU,1732400792
191,kayangel,8.0823,134.7173,28.51,78,100,11.47,PW,1732400892
192,taourirt,34.4073,-2.8973,14.92,57,0,1.49,MA,1732400892
193,port macquarie,-31.4333,152.9167,23.37,73,78,2.24,AU,1732400892
194,barakani,-12.1356,44.4317,26.5,79,0,3.35,KM,1732400892
195,queenstown,-31.8976,26.8753,16.73,85,100,2.33,ZA,1732400893
196,extrema,-22.8547,-46.3183,16.47,89,50,3.5,BR,1732400893
197,dhidhdhoo,6.8833,73.1,27.51,77,100,2.27,MV,1732400893
198,kingston,17.997,-76.7936,27.53,83,75,4.63,JM,1732400626
199,santa cruz del sur,20.7147,-77.9956,25.41,62,65,7.09,CU,1732400893
200,qacha's nek,-30.1154,28.6894,14.73,83,66,1.51,LS,1732400893
201,pran buri,12.3847,99.9098,26.01,89,30,3.32,TH,1732400893
202,plettenberg bay,-34.0527,23.3716,17.05,80,50,1.19,ZA,1732400894
203,kani keli,-12.9536,45.1033,25.59,78,1,3.54,YT,1732400894
204,brisas de zicatela,15.8369,-97.0419,28.29,78,20,5.14,MX,1732400821
205,honefoss,60.168,10.2565,-5.83,86,100,1.4,NO,1732400894
206,touros,-5.1989,-35.4608,25.42,76,95,4.05,BR,1732400782
207,san juan,-31.5375,-68.5364,34.6,25,3,3.25,AR,1732400728
208,luau,-10.7073,22.2247,19.38,95,100,1.89,AO,1732400894
209,pirai do sul,-24.5261,-49.9486,16.8,85,88,3.72,BR,1732400895
210,banfora,10.6333,-4.7667,24.56,18,15,1.89,BF,1732400895
211,ha'il,27.5219,41.6907,15.01,72,0,1.03,SA,1732400895
212,chiras,35.4167,65.9823,-4.26,78,7,4.0,AF,1732400895
213,el molar,40.7322,-3.5797,9.88,91,100,1.34,ES,1732400895
214,fukuecho,32.6881,128.8419,14.41,62,71,6.54,JP,1732400895
215,woodward,36.4337,-99.3904,18.51,36,0,7.2,US,1732400895
216,madang,-5.2246,145.7966,26.29,88,82,1.58,PG,1732400896
217,eupen,50.6295,6.0382,9.07,75,100,11.18,BE,1732400896
218,qusmuryn,52.4503,64.6311,-9.26,86,3,1.68,KZ,1732400896
219,egilsstadir,65.2653,-14.3948,-4.05,86,100,4.63,IS,1732400839
220,papao,-17.75,-149.55,29.82,81,56,7.76,PF,1732400795
221,susuman,62.7833,148.1667,-39.68,100,81,0.18,RU,1732400826
222,tommot,58.9564,126.2925,-14.03,95,100,0.68,RU,1732400896
223,mulayjah,27.271,48.4242,19.75,31,31,3.81,SA,1732400897
224,akalgarh,29.8167,75.8833,17.22,36,0,1.13,IN,1732400897
225,keflavik,64.0049,-22.5624,-1.76,54,0,8.75,IS,1732400853
226,guntakal junction,15.1667,77.3833,19.68,79,97,3.11,IN,1732400897
227,yanam,16.7333,82.2167,21.4,88,70,1.4,IN,1732400897
228,tsumeb,-19.2333,17.7167,27.63,29,35,4.12,NA,1732400897
229,weiser,44.251,-116.9693,12.11,67,86,0.63,US,1732400897
230,taoudenni,22.6783,-3.9836,24.36,18,34,5.13,ML,1732400815
231,palmer,42.1584,-72.3287,7.51,64,40,4.63,US,1732400898
232,sur,22.5667,59.5289,24.74,56,100,3.29,OM,1732400809
233,yoichi,43.2039,140.7703,1.15,64,99,7.23,JP,1732400898
234,trairi,-3.2778,-39.2689,25.94,77,12,3.81,BR,1732400663
235,kachug,53.9606,105.8817,-17.83,94,99,1.57,RU,1732400898
236,naracoorte,-36.9579,140.7383,18.95,88,100,1.64,AU,1732400898
237,ghanzi,-21.5667,21.7833,26.42,30,12,5.91,BW,1732400898
238,kenora,49.8167,-94.4337,-5.46,79,100,4.12,CA,1732400899
239,weno,7.4515,151.8468,26.97,89,100,1.54,FM,1732400793
240,abadeh,31.1608,52.6506,6.33,45,0,1.2,IR,1732400899
241,coremas,-7.0144,-37.9458,32.44,24,75,2.83,BR,1732400899
242,kourou,5.1552,-52.6478,25.76,87,91,2.5,GF,1732400899
243,punta arenas,-53.15,-70.9167,10.06,40,40,12.86,CL,1732400899
244,mar del plata,-38.0023,-57.5575,21.16,86,0,9.26,AR,1732400373
245,mouila,-1.8685,11.0559,23.35,98,93,0.74,GA,1732400900
246,amga,60.8953,131.9608,-30.43,100,49,0.93,RU,1732400851
247,petoskey,45.3733,-84.9553,4.56,87,100,4.02,US,1732400900
248,sao joao da barra,-21.6403,-41.0511,19.05,73,100,3.13,BR,1732400900
249,lastoursville,-0.8143,12.7287,22.13,99,45,1.0,GA,1732400900
250,greenville,35.6127,-77.3663,13.01,65,0,0.0,US,1732400721
251,kiunga,-6.1219,141.2906,24.96,96,100,0.69,PG,1732400797
252,sao vicente,-23.9631,-46.3919,22.19,26,100,3.13,BR,1732400684
253,hirara,24.8,125.2833,22.92,68,75,6.69,JP,1732400791
254,kangding,30.0513,101.9603,2.01,90,40,1.39,CN,1732400901
255,la passe,45.5549,-0.8967,11.28,69,100,9.95,FR,1732400812
256,hithadhoo,-0.6,73.0833,27.77,78,100,6.56,MV,1732400815
257,nuevo imperial,-13.0754,-76.3172,20.25,80,73,3.08,PE,1732400901
258,dabakala,8.3667,-4.4333,24.84,47,25,0.93,CI,1732400901
259,hadibu,12.65,54.0333,25.05,76,89,2.79,YE,1732400777
260,karratha,-20.7377,116.8463,26.89,63,1,1.15,AU,1732400902
261,berdigestyakh,62.0989,126.6992,-14.71,97,100,0.57,RU,1732400824
262,sitka,57.0531,-135.33,2.94,30,0,2.06,US,1732400797
263,anadyr,64.75,177.4833,-2.72,79,100,7.0,RU,1732400818
264,i-n-salah,27.1935,2.4607,18.94,23,0,5.0,DZ,1732400902
265,midvagur,62.0511,-7.1939,5.46,60,75,10.8,FO,1732400902
266,kailua-kona,19.6406,-155.9956,28.64,71,100,3.6,US,1732400808
267,ribeira brava,32.65,-17.0667,22.23,71,86,4.25,PT,1732400903
268,lazaro cardenas,17.9583,-102.2,28.98,68,19,3.29,MX,1732400903
269,nabire,-3.3667,135.4833,25.03,94,98,1.46,ID,1732400845
270,trinity beach,-16.7888,145.6968,26.94,74,75,4.63,AU,1732400903
271,kongolo,-5.3833,27.0,21.03,99,100,0.77,CD,1732400903
272,enriquillo,17.9,-71.2333,24.87,84,100,3.68,DO,1732400903
273,nagqu,31.5,92.0,-6.47,53,94,5.74,CN,1732400830
274,leava,-14.3,-178.1667,27.36,85,95,8.86,WF,1732400904
275,abepura,-2.6333,140.5833,27.45,78,20,1.54,ID,1732400825
276,tindouf,27.6711,-8.1474,23.25,25,20,3.09,DZ,1732400904
277,crane,31.3974,-102.3501,24.73,20,0,4.16,US,1732400812
278,bykovo,55.6361,38.0803,0.85,100,100,5.0,RU,1732400904
279,xai-xai,-25.0519,33.6442,24.63,90,33,3.03,MZ,1732400904
280,huanren,41.2647,125.3667,-2.25,50,34,0.87,CN,1732400904
281,el bauga,18.262,33.9081,22.26,22,0,5.16,SD,1732400905
282,buka,40.8108,69.1986,6.73,46,0,0.57,UZ,1732400792
283,yuzhno-kurilsk,44.0306,145.8556,1.54,59,99,12.4,RU,1732400821
284,khandyga,62.6667,135.6,-29.09,96,17,0.98,RU,1732400826
285,naze,28.3667,129.4833,17.51,57,100,3.88,JP,1732400823
286,grand falls-windsor,48.9332,-55.6649,5.28,93,100,2.24,CA,1732400563
287,nemuro,43.3236,145.575,0.06,74,71,9.19,JP,1732400788
288,korla,41.7597,86.1469,-0.07,61,45,2.31,CN,1732400905
289,vilhena,-12.7406,-60.1458,26.12,78,20,4.12,BR,1732400906
290,xinyuan,37.3,99.0,-9.48,82,100,2.73,CN,1732400906
291,vernon,50.2581,-119.2691,5.74,81,77,0.89,CA,1732400906
292,colonia,50.9333,6.95,8.86,69,0,4.63,DE,1732400906
293,salalah,17.0151,54.0924,24.05,64,0,2.06,OM,1732400906
294,camana,-16.6228,-72.7111,19.59,82,100,2.64,PE,1732400906
295,sumenep,-7.0167,113.8667,27.16,78,100,0.34,ID,1732400906
296,zhaotong,27.3167,103.7167,6.84,97,100,1.41,CN,1732400907
297,amalfi,6.9102,-75.0776,17.5,99,93,0.8,CO,1732400907
298,nantucket,41.2835,-70.0995,7.3,87,100,8.75,US,1732400816
299,sanniquellie,7.3622,-8.7061,22.67,55,24,1.04,LR,1732400907
300,dudinka,69.4058,86.1778,-13.11,94,100,10.14,RU,1732400807
301,tralee,52.2704,-9.7026,12.61,96,100,7.91,IE,1732400801
302,vadso,70.0744,29.7487,-1.91,93,75,14.4,NO,1732400793
303,yerofey pavlovich,53.9667,121.9667,-12.84,98,100,0.25,RU,1732400908
304,palikir - national government center,6.9248,158.1611,26.47,94,100,3.6,FM,1732400908
305,sisimiut,66.9395,-53.6735,-7.26,68,64,5.37,GL,1732400908
306,katoya,23.65,88.1333,18.21,56,2,1.99,IN,1732400908
307,richards bay,-28.783,32.0377,22.79,92,100,2.78,ZA,1732400908
308,ruy barbosa,-12.2839,-40.4939,23.34,90,88,0.72,BR,1732400909
309,mildura,-34.2,142.15,20.6,91,100,4.16,AU,1732400909
310,alaghsas,17.0187,8.0168,22.51,18,3,5.32,NE,1732400909
311,birjand,32.8663,59.2211,5.26,60,0,4.12,IR,1732400799
312,itaituba,-4.2761,-55.9836,29.72,55,100,1.5,BR,1732400909
313,cave creek,33.8333,-111.9508,25.48,11,1,1.34,US,1732400909
314,san jose temascatio,20.6833,-101.2667,26.37,9,0,3.18,MX,1732400910
315,andol,17.8131,78.0772,16.81,71,100,1.32,IN,1732400910
316,maple ridge,49.2194,-122.6019,10.86,76,99,2.57,CA,1732400910
317,cidade velha,14.9167,-23.6167,25.26,65,20,4.63,CV,1732400910
318,ilhabela,-23.7781,-45.3581,20.34,91,100,3.32,BR,1732400910
319,el calafate,-50.3408,-72.2768,9.33,47,14,4.82,AR,1732400813
320,chinde,26.8212,87.7095,15.27,73,1,2.63,NP,1732400910
321,diego de almagro,-26.3667,-70.05,25.1,17,0,4.34,CL,1732400911
322,pisz,53.6274,21.8125,-0.99,89,67,4.2,PL,1732400911
323,muhlhausen,51.2167,10.45,3.37,62,100,8.44,DE,1732400911
324,vila velha,-20.3297,-40.2925,22.19,86,75,4.12,BR,1732400648
325,segezha,63.7415,34.3222,-4.44,93,84,4.29,RU,1732400911
326,kerikeri,-35.2268,173.9474,16.25,68,22,1.31,NZ,1732400911
327,luderitz,-26.6481,15.1594,15.63,79,0,4.01,NA,1732400911
328,rabo de peixe,37.8,-25.5833,17.77,99,20,5.14,PT,1732400912
329,parras de la fuente,25.4167,-102.1833,24.66,19,0,3.48,MX,1732400912
330,yorkton,51.2167,-102.4677,-11.09,92,100,5.14,CA,1732400805
331,miquelon,47.0975,-56.3814,8.38,94,100,15.03,PM,1732400849
332,coyhaique,-45.5752,-72.0662,12.87,58,26,4.39,CL,1732400830
333,djenne,13.9061,-4.5533,25.66,13,15,4.02,ML,1732400912
334,ouadda,8.0777,22.4007,21.0,33,30,1.95,CF,1732400912
335,beira,-19.8436,34.8389,27.05,74,20,6.69,MZ,1732400913
336,freetown,8.484,-13.2299,26.84,79,31,2.27,SL,1732400850
337,qingdao,36.0986,120.3719,0.78,80,99,2.0,CN,1732400913
338,cidreira,-30.1811,-50.2056,20.39,80,0,8.87,BR,1732400913
339,selkirk,50.1436,-96.8845,-3.87,65,33,1.09,CA,1732400815
340,lawas,13.764,121.0566,24.39,90,69,4.36,PH,1732400913
341,hilo,19.7297,-155.09,26.16,84,0,4.63,US,1732400913
342,kudahuvadhoo,2.6708,72.8944,27.2,81,98,4.88,MV,1732400914
343,chonchi,-42.6128,-73.8092,11.73,91,100,0.48,CL,1732400820
344,tura,25.5198,90.2201,15.44,89,0,1.55,IN,1732400803
345,zyryanovsk,49.7386,84.2719,-20.5,99,83,0.74,KZ,1732400826
346,tionk essil,12.7856,-16.5217,25.08,62,19,2.73,SN,1732400914
347,nguigmi,14.2495,13.1092,22.51,23,32,5.67,NE,1732400800
348,isla vista,34.4133,-119.861,16.57,88,100,4.63,US,1732400914
349,kisangani,0.5167,25.2,20.98,90,62,0.55,CD,1732400914
350,kokopo,-4.352,152.2633,27.42,76,13,1.22,PG,1732400915
351,juneau,58.3019,-134.4197,-1.0,31,0,5.66,US,1732400915
352,kapa'a,22.0752,-159.319,26.38,68,0,3.6,US,1732400881
353,karlovac,45.4872,15.5478,1.55,75,31,1.56,HR,1732400915
354,pangai,-19.8,-174.35,24.96,83,91,5.97,TO,1732400915
355,araripina,-7.5761,-40.4983,28.65,31,34,1.98,BR,1732400916
356,dalandzadgad,43.5708,104.425,-4.4,80,68,6.08,MN,1732400916
357,gwadar,25.1216,62.3254,25.06,71,10,4.08,PK,1732400916
358,nassau,40.7507,-73.5829,8.93,66,0,7.72,US,1732400916
359,galliano,29.4422,-90.2992,19.0,42,0,2.06,US,1732400916
360,tolanaro,-25.0319,46.9987,25.04,94,20,4.12,MG,1732400781
361,kapuskasing,49.4169,-82.4331,-0.95,93,100,6.17,CA,1732400805
362,makoua,0.0069,15.6333,22.85,91,98,1.14,CG,1732400917
363,jhalida,23.3667,85.9667,15.99,62,64,1.12,IN,1732400917
364,masterton,-40.9597,175.6575,14.98,67,93,3.06,NZ,1732400917
365,viedma,-40.8135,-62.9967,22.97,55,100,1.95,AR,1732400845
366,ciudad lazaro cardenas,17.9583,-102.2,28.98,68,19,3.29,MX,1732400840
367,polatli,39.5772,32.1413,0.56,88,100,6.64,TR,1732400917
368,vila franca do campo,37.7167,-25.4333,18.27,99,44,3.43,PT,1732400917
369,chegdomyn,51.1167,133.0167,-17.42,95,99,0.29,RU,1732400917
370,nishinoomote,30.7333,131.0,17.53,60,76,7.43,JP,1732400918
371,cururupu,-1.8283,-44.8683,24.24,82,0,1.52,BR,1732400918
372,kendari,-3.945,122.4989,24.73,93,97,0.13,ID,1732400918
373,winnemucca,40.973,-117.7357,8.03,57,100,8.23,US,1732400918
374,howard springs,-12.497,131.047,27.15,96,56,0.89,AU,1732400918
375,tamanrasset,22.785,5.5228,14.95,25,0,3.09,DZ,1732400819
376,pyinmana,19.7333,96.2167,18.08,84,55,1.1,MM,1732400919
377,diebougou,10.9667,-3.25,24.77,19,36,2.14,BF,1732400919
378,mont-saint-aignan,49.4631,1.0936,11.79,79,0,10.29,FR,1732400919
379,ta`u,-14.2336,-169.5144,26.77,83,76,6.51,AS,1732400919
380,vallenar,-28.5708,-70.7581,23.66,29,0,3.44,CL,1732400776
381,intendente alvear,-35.2338,-63.592,31.41,28,0,5.64,AR,1732400919
382,barentu,15.1139,37.5928,23.93,70,56,1.01,ER,1732400920
383,kotlas,61.2611,46.6556,0.59,99,100,1.02,RU,1732400920
384,stornoway,58.2093,-6.3865,9.98,91,75,11.32,GB,1732400833
385,elliot lake,46.3834,-82.6331,2.07,74,100,3.08,CA,1732400920
386,dryden,49.7833,-92.7503,-5.84,79,100,3.09,CA,1732400800
387,diu,20.7141,70.9822,21.63,49,60,2.68,IN,1732400920
388,castillos,-34.1667,-53.8333,19.03,80,17,4.71,UY,1732400828
389,booneville,34.6582,-88.5667,13.79,62,7,1.01,US,1732400921
390,cadale,2.7603,46.3222,26.93,75,65,5.95,SO,1732400921
391,franklin,39.9667,-83.0166,7.35,84,100,6.17,US,1732400921
392,king,47.4665,-121.8179,5.14,87,100,0.89,US,1732400921
393,al bayda',32.7627,21.7551,11.46,68,89,11.47,LY,1732400921
394,san patricio,28.017,-97.5169,26.97,48,0,6.31,US,1732400796
395,grove,51.6095,-1.4219,15.12,95,75,6.69,GB,1732400922
396,nuuk,64.1835,-51.7216,-3.66,50,7,1.54,GL,1732400922
397,kyzyl-suu,42.3414,78.0056,-1.91,47,0,4.15,KG,1732400922
398,north battleford,52.7834,-108.2847,-9.95,92,100,5.66,CA,1732400922
399,imphal,24.8167,93.95,11.06,88,0,1.24,IN,1732400922
400,san pedro,14.35,121.0167,27.33,85,20,1.79,PH,1732400922
401,ksar chellala,35.2122,2.3189,12.46,60,5,5.71,DZ,1732400923
402,kibondo,-3.5864,30.7203,16.49,95,100,1.63,TZ,1732400923
403,chulym,55.0997,80.9572,-8.21,93,100,3.15,RU,1732400923
404,thunder bay,48.4001,-89.3168,-1.01,64,100,4.63,CA,1732400923
405,crete,35.1558,24.895,7.45,55,56,8.08,GR,1732400923
406,belyy yar,53.6039,91.3903,-15.06,85,0,0.0,RU,1732400923
407,al khums,32.6486,14.2619,18.57,59,41,5.13,LY,1732400923
408,tanjung selor,2.8372,117.3642,23.21,98,100,0.57,ID,1732400924
409,orshanka,56.9161,47.8933,6.3,70,100,10.67,RU,1732400924
410,villa maria grande,-31.6656,-59.9018,29.2,40,0,5.81,AR,1732400924
411,mchinji,-13.7984,32.8802,22.62,47,0,3.0,MW,1732400924
412,saynshand,44.8824,110.1163,-0.57,67,100,1.04,MN,1732400924
413,dakoro,14.5106,6.765,22.95,17,0,4.67,NE,1732400924
414,tezu,27.9167,96.1667,15.8,82,100,2.01,IN,1732400925
415,hami,42.8,93.45,-3.0,49,63,1.93,CN,1732400925
416,yanchep,-31.55,115.6833,18.49,48,0,2.75,AU,1732400811
417,suva,-18.1416,178.4415,27.71,78,75,6.17,FJ,1732400783
418,bardai,11.65,7.2333,18.97,23,0,3.92,NG,1732400835
419,demre,36.2537,29.9777,14.55,67,2,3.84,TR,1732400925
420,puerto baquerizo moreno,-0.9,-89.6,25.55,61,20,7.2,EC,1732400828
421,acapulco de juarez,16.8634,-99.8901,29.9,70,40,4.12,MX,1732400698
422,anar darah,32.7587,61.654,9.84,72,71,2.76,AF,1732400926
423,kyongsong,41.5878,129.6061,-0.75,32,8,1.81,KP,1732400926
424,daru,-9.0763,143.2092,27.78,84,21,6.57,PG,1732400926
425,mount pearl,47.5166,-52.7813,6.29,98,100,10.29,CA,1732400651
426,rabaul,-4.1967,152.1721,27.71,74,16,1.54,PG,1732400926
427,valjevo,44.2751,19.8982,-2.71,76,0,3.63,RS,1732400927
428,mirny,62.5353,113.9611,-28.98,93,36,1.93,RU,1732400927
429,baardheere,2.3446,42.2764,26.15,81,42,2.84,SO,1732400927
430,margate,51.3813,1.3862,13.16,86,100,2.24,GB,1732400846
431,pekan,3.4836,103.3996,24.28,92,100,2.26,MY,1732400927
432,dawson creek,55.7666,-120.2362,-16.2,78,100,5.66,CA,1732400927
433,ciudad bolivar,8.1222,-63.5497,26.28,79,100,4.89,VE,1732400927
434,vuktyl,63.8567,57.3094,-2.02,95,100,6.59,RU,1732400928
435,antsiranana,-12.2787,49.2917,23.94,92,7,3.17,MG,1732400782
436,as sulayyil,20.4607,45.5779,19.82,34,4,3.62,SA,1732400851
437,souillac,-20.5167,57.5167,24.21,88,20,3.6,MU,1732400928
438,kargopol',61.5071,38.9456,-4.44,96,100,1.62,RU,1732400928
439,usinsk,65.9939,57.5281,-2.55,86,100,9.85,RU,1732400791
440,georgievka,49.3314,81.5761,-12.53,97,60,1.25,KZ,1732400928
441,turan,16.0678,108.2208,25.99,83,75,3.6,VN,1732400929
442,fale old settlement,-9.3852,-171.2468,28.52,74,82,8.88,TK,1732400832
443,marolambo,-20.05,48.1167,20.16,92,58,0.8,MG,1732400929
444,berezovyy,51.6667,135.7,-13.68,79,9,1.92,RU,1732400929
445,abakaliki,6.3163,8.1169,25.53,34,91,0.78,NG,1732400929
446,qal'ah-ye shahr,35.5473,65.5676,1.43,69,4,2.46,AF,1732400929
447,ebon,4.582,168.6964,28.63,68,29,3.39,MH,1732400930
448,vilyuchinsk,52.9306,158.4028,-5.85,76,100,0.52,RU,1732400808
449,sao felix do xingu,-6.6447,-51.995,26.22,69,72,0.18,BR,1732400930
450,liwale,-9.7667,37.9333,22.5,84,17,2.04,TZ,1732400930
451,pedregal,8.3667,-82.4333,25.05,94,75,3.58,PA,1732400930
452,loei,17.4167,101.5,14.65,94,21,0.67,TH,1732400930
453,levuka,50.1834,-105.4011,-12.16,95,100,5.67,CA,1732400930
454,farafangana,-22.8167,47.8333,24.04,92,13,1.84,MG,1732400931
455,port saint john's,-31.6229,29.5448,21.27,88,100,1.43,ZA,1732400931
456,lubang,13.8584,120.124,27.39,79,41,11.91,PH,1732400931
457,mogocha,53.7333,119.7667,-16.95,100,95,1.08,RU,1732400781
458,hamina,60.5697,27.1979,-4.26,88,30,5.64,FI,1732400888
459,rio grande,-32.035,-52.0986,20.06,81,7,8.77,BR,1732400813
460,medina,24.4686,39.6142,26.24,50,0,2.06,SA,1732400932
461,anloga,5.7947,0.8973,27.52,80,74,3.39,GH,1732400932
462,paracuru,-3.41,-39.0306,26.03,78,20,4.25,BR,1732400932
463,pervomayskoye,43.919,46.7102,13.4,76,100,9.64,RU,1732400932
464,aklera,24.4167,76.5667,16.55,46,0,1.63,IN,1732400932
465,saint-hippolyte,42.7833,2.9667,6.28,87,0,1.03,FR,1732400932
466,mbanza kongo,-6.267,14.2401,21.22,95,100,0.36,AO,1732400836
467,arkadelphia,34.1209,-93.0538,17.87,48,0,0.0,US,1732400933
468,megion,61.0296,76.1136,-6.99,97,100,3.01,RU,1732400933
469,callao,-12.0667,-77.15,23.73,78,100,4.63,PE,1732400629
470,klyuchi,52.2667,79.1667,-9.8,93,21,2.65,RU,1732400824
471,shimoda,34.6667,138.95,11.1,75,100,4.9,JP,1732400933
472,tidjikja,18.5564,-11.4271,25.12,13,0,4.7,MR,1732400933
473,guerrero negro,27.9769,-114.0611,18.87,63,95,7.31,MX,1732400793
474,road town,18.4167,-64.6167,28.02,83,20,2.06,VG,1732400932
475,hammerfest,70.6634,23.6821,3.25,81,40,2.57,NO,1732400819
476,baki,-7.6128,110.7839,25.23,87,100,1.18,ID,1732400934
477,nova vicosa,-17.8919,-39.3719,22.81,91,100,7.96,BR,1732400934
478,fort bragg,35.139,-79.006,13.91,57,0,3.09,US,1732400818
479,assab,13.0092,42.7394,27.07,75,0,9.46,ER,1732400934
480,port-vila,-17.7338,168.3219,25.78,83,100,3.6,VU,1732400934
481,las lomitas,-24.7096,-60.593,33.85,34,51,1.21,AR,1732400934
482,sola,-13.8833,167.55,27.15,79,23,2.46,VU,1732400935
483,mumbwa,-14.9783,27.0619,23.38,52,55,1.63,ZM,1732400935
484,calingasta,-31.3308,-69.4078,30.71,30,8,8.25,AR,1732400672
485,san matias,-16.3667,-58.4,27.64,76,100,1.92,BO,1732400935
486,melfi,40.9965,15.6514,3.13,59,2,2.07,IT,1732400878
487,caleta de carquin,-11.0925,-77.6267,20.64,79,93,4.3,PE,1732400935
488,yardimli,38.9206,48.2372,8.44,62,2,1.94,AZ,1732400936
489,yelizovo,53.1873,158.3805,-5.92,73,75,2.0,RU,1732400936
490,port isabel,26.0734,-97.2086,26.02,58,0,7.72,US,1732400936
491,jijiga,9.35,42.8,14.39,68,2,2.6,ET,1732400936
492,prince rupert,54.3161,-130.3201,3.83,51,100,8.23,CA,1732400936
493,trevelin,-43.0858,-71.4639,14.85,62,27,2.0,AR,1732400936
494,kenai,60.5544,-151.2583,-1.59,87,0,2.57,US,1732400807
495,balqash,46.8481,74.995,-1.86,70,0,8.86,KZ,1732400937
496,taroa,8.7058,171.2275,26.38,85,100,7.89,MH,1732400811
497,ulundi,-28.3352,31.4162,20.47,94,100,0.74,ZA,1732400937
498,timaru,-44.4,171.25,13.75,64,7,3.83,NZ,1732400937
499,kalifornsky,60.4183,-151.29,-5.41,100,0,2.57,US,1732400937
500,errachidia,31.9275,-4.4285,14.03,47,0,2.57,MA,1732400838
501,carauari,-4.8828,-66.8958,26.34,84,93,1.51,BR,1732400937
502,malvan,16.0667,73.4667,22.83,70,61,3.35,IN,1732400937
503,pointe-noire,-4.7761,11.8635,25.83,87,100,1.22,CG,1732400938
504,buala,-8.145,159.5921,28.91,69,44,1.74,SB,1732400853
505,noumea,-22.2763,166.4572,26.67,99,100,5.18,NC,1732400938
506,forster,-32.1667,152.5167,25.21,69,51,3.54,AU,1732400938
507,oruro,-17.9833,-67.15,14.51,46,94,7.86,BO,1732400938
508,hovd,48.0056,91.6419,-11.42,69,95,3.16,MN,1732400794
509,sinabang,2.4803,96.3801,25.75,87,100,1.99,ID,1732400806
510,tortoli,39.9256,9.6572,12.3,65,0,6.17,IT,1732400939
511,mazamari,-11.3258,-74.5308,24.84,87,82,0.77,PE,1732400939
512,mabaruma,8.2,-59.7833,25.22,89,92,1.43,GY,1732400939
513,basco,20.4487,121.9702,26.0,76,40,12.18,PH,1732400939
514,nirmal,19.1,78.35,17.07,65,95,0.92,IN,1732400939
515,choyr,46.3611,108.3611,-3.2,44,100,2.38,MN,1732400939
516,bechar,31.6167,-2.2167,13.18,50,0,1.54,DZ,1732400940
517,inhambane,-23.865,35.3833,24.91,89,69,3.39,MZ,1732400940
518,mermoz boabab,14.7065,-17.4758,24.88,94,0,1.03,SN,1732400830
519,lompoc,34.6391,-120.4579,18.72,76,75,4.63,US,1732400779
520,naama,33.2667,-0.3167,10.75,51,7,5.72,DZ,1732400817
521,arquitecto tomas romero pereira,-26.4833,-55.25,30.24,41,66,3.36,PY,1732400940
522,yung shue wan,22.2333,114.1167,20.93,77,100,1.34,HK,1732400801
523,uryupinsk,50.8047,42.0138,9.23,84,100,7.62,RU,1732400940
524,juigne,47.7188,-0.3941,13.1,67,0,7.72,FR,1732400941
525,huarmey,-10.0681,-78.1522,20.7,79,99,4.19,PE,1732400941
526,pestravka,52.405,49.9583,3.3,60,100,8.61,RU,1732400652
527,ludres,48.6218,6.1618,8.25,67,0,12.86,FR,1732400941
528,balboa,2.0396,-77.2168,18.83,92,87,1.66,CO,1732400941
529,klaksvik,62.2266,-6.589,5.86,67,100,17.95,FO,1732400777
530,ipiales,0.8302,-77.6496,17.43,63,40,3.6,CO,1732400941
531,emerald,-23.5333,148.1667,25.19,60,7,6.51,AU,1732400942
532,puerto deseado,-47.7503,-65.8938,12.99,42,32,7.82,AR,1732400942
533,moyale,3.5167,39.0584,19.66,81,89,0.8,KE,1732400942
534,saint-philippe,-21.3585,55.7679,24.57,87,52,5.65,RE,1732400814
535,bata,1.8639,9.7658,26.13,85,100,2.09,GQ,1732400942
536,ad dawadimi,24.5077,44.3924,17.64,47,6,6.96,SA,1732400942
537,nogliki,51.8333,143.1667,-1.56,95,100,9.08,RU,1732400942
538,nhamunda,-2.1861,-56.7131,31.7,37,33,1.36,BR,1732400840
539,kutum,14.2,24.6667,16.14,22,0,4.75,SD,1732400943
540,jand,33.4299,72.0193,15.91,37,34,2.28,PK,1732400943
541,richmond,37.5538,-77.4603,13.02,61,75,2.57,US,1732400830
542,ovalle,-30.5983,-71.2003,25.51,33,2,3.87,CL,1732400352
543,muromtsevo,56.3724,75.2418,-6.39,88,100,3.03,RU,1732400943
544,nouadhibou,20.931,-17.0347,20.99,88,0,4.12,MR,1732400802
545,ginir,7.1333,40.7,15.05,68,23,2.18,ET,1732400943
546,aweil,8.7682,27.4002,24.52,25,4,2.57,SS,1732400944
