City_ID,City,Lat,Lng,Max Temp,Humidity,Cloudiness,Wind Speed,Country,Date
0,sandnessjoen,66.0217,12.6316,4.33,60,100,9.27,NO,1732409790
1,tazovsky,67.4667,78.7,-12.1,94,51,3.94,RU,1732409790
2,upper grand lagoon,30.1633,-85.7408,13.34,83,0,0.0,US,1732409790
3,alice springs,-23.7,133.8833,22.75,73,100,5.66,AU,1732409790
4,olonkinbyen,70.9221,-8.7187,-3.86,55,21,8.04,SJ,1732409790
5,atafu village,-8.5421,-172.5159,28.85,70,26,8.6,TK,1732409790
6,adamstown,-25.066,-130.1015,22.76,70,91,6.79,PN,1732409790
7,usogorsk,63.4106,48.6872,0.76,98,100,3.33,RU,1732409791
8,blackmans bay,-43.0167,147.3167,15.41,82,100,0.45,AU,1732409791
9,papatowai,-46.5619,169.4708,16.7,45,100,2.79,NZ,1732409791
10,lompoc,34.6391,-120.4579,15.94,86,75,3.6,US,1732409791
11,waitangi,-43.9535,-176.5597,12.12,75,42,4.47,NZ,1732409791
12,tiksi,71.6872,128.8694,-27.0,98,42,3.82,RU,1732409791
13,st. john's,47.5649,-52.7093,7.38,96,100,10.8,CA,1732409515
14,ribas do rio pardo,-20.4431,-53.7592,24.85,62,0,1.78,BR,1732409791
15,puerto baquerizo moreno,-0.9,-89.6,22.2,72,76,4.95,EC,1732409792
16,port-aux-francais,-49.35,70.2167,4.87,80,100,16.38,TF,1732409792
17,port mathurin,-19.6833,63.4167,24.47,77,7,8.51,MU,1732409792
18,fisterra,42.9049,-9.2629,18.35,64,100,18.95,ES,1732409792
19,houma,29.5958,-90.7195,14.0,73,0,2.06,US,1732409793
20,baker city,44.7749,-117.8344,2.43,87,100,2.64,US,1732409793
21,williamsburg,37.2707,-76.7075,9.96,75,20,3.09,US,1732409759
22,longyearbyen,78.2186,15.6401,-5.09,63,75,1.54,SJ,1732409793
23,hamilton,39.1834,-84.5333,6.0,87,100,4.63,US,1732409136
24,whitehorse,60.7161,-135.0538,-19.43,76,20,1.54,CA,1732409793
25,hithadhoo,-0.6,73.0833,27.73,79,99,6.36,MV,1732409793
26,ust-nera,64.5667,143.2,-31.39,98,71,2.02,RU,1732409794
27,narrabri,-30.3167,149.7833,29.73,49,100,1.34,AU,1732409794
28,puerto madryn,-42.7692,-65.0385,17.88,55,76,7.85,AR,1732409789
29,punta arenas,-53.15,-70.9167,9.06,46,40,8.75,CL,1732409215
30,cole harbour,44.6724,-63.4751,7.74,94,100,16.98,CA,1732409794
31,phai sali,15.5976,100.6585,24.23,74,44,2.46,TH,1732409794
32,zaysan,47.4667,84.8667,-10.0,71,5,2.66,KZ,1732409794
33,wailua homesteads,22.0669,-159.378,25.44,75,0,3.6,US,1732409795
34,dryden,49.7833,-92.7503,-4.84,80,100,2.57,CA,1732409795
35,lorengau,-2.0226,147.2712,29.17,75,28,2.04,PG,1732409795
36,turtas,58.9417,69.1325,-2.61,87,100,3.37,RU,1732409795
37,la asuncion,11.0333,-63.8628,25.85,100,62,2.06,VE,1732409795
38,isafjordur,66.0755,-23.124,-5.18,70,54,6.64,IS,1732409795
39,stanley,54.868,-1.6985,13.01,90,20,7.2,GB,1732409795
40,loango,-4.6719,11.8312,25.81,89,20,1.54,CG,1732409796
41,chui,-33.6971,-53.4616,18.42,80,0,5.74,UY,1732409531
42,kodiak,57.79,-152.4072,3.73,65,0,0.0,US,1732409600
43,ribeira grande,38.5167,-28.7,15.99,71,100,5.36,PT,1732409796
44,goronyo,13.4423,5.6763,20.84,21,6,3.83,NG,1732409796
45,puerto ayora,-0.7393,-90.3518,23.08,84,98,3.13,EC,1732409796
46,jamestown,42.097,-79.2353,5.57,87,100,4.63,US,1732409796
47,kapa'a,22.0752,-159.319,26.18,75,0,3.6,US,1732409797
48,yellowknife,62.456,-114.3525,-14.71,78,75,1.54,CA,1732409797
49,inirida,3.8653,-67.9239,23.45,92,100,1.14,CO,1732409797
50,albany,42.6001,-73.9662,6.23,64,100,2.68,US,1732409631
51,puerto aysen,-45.4,-72.7,7.54,98,99,1.64,CL,1732409797
52,talnakh,69.4865,88.3972,-13.74,95,100,6.4,RU,1732409798
53,lebu,-37.6167,-73.65,13.87,93,100,3.67,CL,1732409798
54,nova vicosa,-17.8919,-39.3719,22.54,84,100,5.89,BR,1732409798
55,remire-montjoly,4.9167,-52.2667,25.02,100,40,1.03,GF,1732409798
56,avarua,-21.2078,-159.775,26.03,61,20,8.23,CK,1732409771
57,shenjiamen,29.9576,122.298,16.24,56,23,3.11,CN,1732409798
58,lavaur,43.6985,1.8186,11.58,87,44,3.64,FR,1732409761
59,slave lake,55.2834,-114.769,-12.01,85,100,0.0,CA,1732409799
60,port elizabeth,-33.918,25.5701,16.84,97,0,2.06,ZA,1732409799
61,puerto natales,-51.7236,-72.4875,4.91,64,13,3.37,CL,1732409799
62,invercargill,-46.4,168.35,16.68,66,100,4.47,NZ,1732409799
63,aginskoye,51.1,114.53,-8.02,79,100,8.72,RU,1732409799
64,ushuaia,-54.8,-68.3,4.81,87,100,7.72,AR,1732409583
65,hinton,53.4001,-117.5857,-12.96,95,100,1.59,CA,1732409800
66,red oak,32.5176,-96.8044,19.1,54,0,4.12,US,1732409800
67,labytnangi,66.6572,66.4183,-10.12,97,100,0.63,RU,1732409800
68,newman,37.3138,-121.0208,14.47,78,3,2.94,US,1732409800
69,anadyr,64.75,177.4833,-3.72,86,100,9.0,RU,1732409800
70,bethel,41.3712,-73.414,6.67,73,5,1.34,US,1732409800
71,sangin,32.0728,64.8359,9.81,47,78,1.9,AF,1732409800
72,clewiston,26.7542,-80.9337,15.27,47,5,2.26,US,1732409510
73,vilyuchinsk,52.9306,158.4028,-2.85,73,100,5.88,RU,1732409801
74,bilibino,68.0546,166.4372,-28.67,91,67,1.09,RU,1732409801
75,taro,-8.3862,115.28,28.15,62,82,0.09,ID,1732409801
76,tolanaro,-25.0319,46.9987,25.04,88,20,3.09,MG,1732409802
77,dhuusamarreeb,5.535,46.3861,23.56,83,28,5.16,SO,1732409802
78,hasaki,35.7333,140.8333,12.92,52,96,7.71,JP,1732409802
79,mayiladuthurai,11.1,79.6667,22.08,97,99,3.25,IN,1732409802
80,burton,42.9995,-83.6163,6.18,81,100,5.14,US,1732409802
81,turpan,42.9333,89.1667,1.1,60,0,1.98,CN,1732409802
82,petropavlovsk-kamchatsky,53.0452,158.6483,-3.67,63,75,1.0,RU,1732409803
83,itoman,26.1247,127.6694,23.01,56,75,6.17,JP,1732409803
84,iqaluit,63.7506,-68.5145,-3.15,93,100,1.03,CA,1732409803
85,kurchatov,51.6601,35.6521,-2.33,87,100,6.43,RU,1732409803
86,grytviken,-54.2811,-36.5092,7.86,94,100,6.78,GS,1732409803
87,constantia,44.1833,28.65,-0.62,68,8,6.72,RO,1732409803
88,rovaniemi,66.5,25.7167,-4.33,86,0,5.14,FI,1732409803
89,sungai penuh,-2.0833,101.3833,20.39,92,100,0.85,ID,1732409804
90,terbanggi besar,-4.8667,105.2333,26.56,84,100,1.34,ID,1732409804
91,bubaque,11.2833,-15.8333,28.25,69,31,5.5,GW,1732409804
92,badger,64.8,-147.5333,-9.8,87,0,1.54,US,1732409804
93,korla,41.7597,86.1469,-0.91,57,51,1.56,CN,1732409804
94,placido de castro,-10.3353,-67.1856,24.3,90,92,1.11,BR,1732409593
95,qamdo,31.1667,97.2333,-3.47,48,100,0.15,CN,1732409805
96,fortuna foothills,32.6578,-114.4119,24.05,17,0,1.54,US,1732409805
97,chinde,26.8212,87.7095,15.22,74,0,2.47,NP,1732409805
98,nizhneangarsk,55.7833,109.55,-17.55,69,92,3.53,RU,1732409805
99,sompeta,18.9333,84.6,19.57,79,100,2.6,IN,1732409805
100,harper,4.375,-7.7169,25.66,87,84,2.45,LR,1732409805
101,nguigmi,14.2495,13.1092,21.22,26,0,5.01,NE,1732409805
102,willowmore,-33.2926,23.4895,15.61,78,0,3.24,ZA,1732409806
103,mtimbira,-8.7833,36.35,25.12,77,85,1.76,TZ,1732409806
104,holualoa,19.6228,-155.9522,26.42,72,0,3.6,US,1732409806
105,edinburgh of the seven seas,-37.0676,-12.3116,12.51,73,33,7.59,SH,1732409806
106,bam,29.106,58.357,13.66,39,0,1.69,IR,1732409806
107,yuzhno-kurilsk,44.0306,145.8556,2.01,57,100,13.47,RU,1732409806
108,padang,-0.9492,100.3543,26.03,84,100,1.1,ID,1732409806
109,elverum,60.8819,11.5623,-10.81,95,99,0.74,NO,1732409807
110,tibanbang,6.6315,126.1055,27.33,79,74,2.58,PH,1732409807
111,arno,60.1167,18.6333,-5.07,80,7,4.35,SE,1732409807
112,acarau,-2.8856,-40.12,26.08,79,6,5.63,BR,1732409807
113,bonthe,7.5264,-12.505,26.47,80,4,1.64,SL,1732409808
114,gerash,27.6652,54.1371,10.08,25,3,1.11,IR,1732409532
115,san antonio de pale,-1.4014,5.6325,25.86,83,100,3.78,GQ,1732409808
116,bredasdorp,-34.5322,20.0403,16.27,91,0,1.83,ZA,1732409808
117,kirakira,-10.4544,161.9205,30.34,69,13,3.27,SB,1732409808
118,touros,-5.1989,-35.4608,25.32,77,100,4.92,BR,1732409808
119,lihue,21.9789,-159.3672,25.77,57,0,3.6,US,1732409808
120,quellon,-43.1167,-73.6167,10.1,97,100,1.16,CL,1732409808
121,erdenet,49.0333,104.0833,-15.46,68,100,3.04,MN,1732409809
122,coahuayana de hidalgo,18.7,-103.6583,24.88,87,11,0.72,MX,1732409809
123,umm kaddadah,13.6017,26.6876,18.34,21,4,6.01,SD,1732409809
124,ta`u,-14.2336,-169.5144,27.38,78,100,4.44,AS,1732409809
125,dunedin,-45.8742,170.5036,14.89,75,100,2.68,NZ,1732409630
126,vila franca do campo,37.7167,-25.4333,18.27,99,92,9.26,PT,1732409809
127,sumenep,-7.0167,113.8667,29.62,65,100,1.3,ID,1732409809
128,georgetown,5.4112,100.3354,26.96,89,20,1.54,MY,1732409745
129,san luis,-33.295,-66.3356,24.46,52,0,4.39,AR,1732409810
130,hermanus,-34.4187,19.2345,16.0,90,5,3.87,ZA,1732409810
131,nova sintra,14.8667,-24.7167,26.19,71,8,1.52,CV,1732409810
132,college,64.8569,-147.8028,-9.75,84,75,1.54,US,1732409794
133,lamu,-2.2717,40.902,25.98,87,99,2.52,KE,1732409811
134,castelnovo ne'monti,44.4356,10.4033,4.6,76,100,1.71,IT,1732409811
135,ghadamis,30.1337,9.5007,15.01,50,0,5.36,LY,1732409811
136,colonia,50.9333,6.95,10.53,77,75,4.12,DE,1732409811
137,kapchorwa,1.3965,34.4509,15.3,89,100,1.41,UG,1732409811
138,zhezqazghan,47.7833,67.7667,-3.68,58,0,8.0,KZ,1732409811
139,margaret river,-33.95,115.0667,22.04,43,0,1.36,AU,1732409691
140,taoudenni,22.6783,-3.9836,22.63,20,2,5.24,ML,1732409812
141,nemuro,43.3236,145.575,1.97,62,34,10.86,JP,1732409812
142,sayansk,54.1088,102.1648,-14.64,86,99,3.63,RU,1732409812
143,utrik,11.2278,169.8474,27.89,79,70,7.66,MH,1732409812
144,kananga,-5.8958,22.4178,19.02,98,99,0.54,CD,1732409812
145,san patricio,28.017,-97.5169,22.97,64,0,4.59,US,1732409813
146,west island,-12.1568,96.8225,25.99,94,100,8.75,CC,1732409813
147,cidreira,-30.1811,-50.2056,20.44,80,0,8.39,BR,1732409813
148,warmbaths,-24.8833,28.2833,21.08,58,100,2.59,ZA,1732409653
149,basco,20.4487,121.9702,26.11,75,5,11.46,PH,1732409813
150,tougue,11.4667,-11.6,19.45,32,74,0.7,GN,1732409813
151,puerto del rosario,28.5004,-13.8627,22.86,68,0,5.14,ES,1732409813
152,kulhudhuffushi,6.6221,73.07,27.21,79,100,3.28,MV,1732409814
153,saint-pierre,-21.3393,55.4781,23.82,78,0,2.57,RE,1732409814
154,labrador city,52.9463,-66.9114,-5.05,95,100,4.63,CA,1732409814
155,fada,7.25,4.0667,21.98,95,3,0.14,NG,1732409814
156,bengkulu,-3.8004,102.2655,25.47,86,100,2.0,ID,1732409814
157,kill devil hills,36.0307,-75.676,11.01,68,0,2.06,US,1732409814
158,crane,31.3974,-102.3501,18.19,40,0,7.07,US,1732409814
159,ilulissat,69.2167,-51.1,-16.04,76,99,2.95,GL,1732409815
160,barbacha,36.5667,4.9667,10.24,88,0,4.63,DZ,1732409815
161,la'ie,21.6477,-157.9253,28.98,61,94,2.71,US,1732409815
162,owando,-0.4819,15.8999,21.57,92,100,1.13,CG,1732409815
163,sao joao da barra,-21.6403,-41.0511,21.46,77,88,3.32,BR,1732409815
164,pisco,-13.7,-76.2167,19.03,88,0,6.69,PE,1732409815
165,mount pearl,47.5166,-52.7813,6.92,98,100,10.8,CA,1732409815
166,rio gallegos,-51.6226,-69.2181,10.03,37,0,8.23,AR,1732409816
167,kuqa,41.7278,82.9364,-0.05,55,0,2.76,CN,1732409816
168,mirnyy,62.5353,113.9611,-33.55,100,9,1.74,RU,1732409816
169,brisas de zicatela,15.8369,-97.0419,24.96,84,2,0.83,MX,1732409816
170,tvoroyri,61.5556,-6.8111,5.06,89,100,22.93,FO,1732409816
171,baardheere,2.3446,42.2764,25.33,83,59,2.43,SO,1732409816
172,ikongo,-21.8833,47.4333,21.34,97,12,0.7,MG,1732409816
173,nouadhibou,20.931,-17.0347,19.99,88,40,3.6,MR,1732409817
174,iskateley,67.6803,53.1512,-2.85,96,100,7.02,RU,1732409817
175,cromwell,41.5951,-72.6454,8.14,73,20,3.6,US,1732409580
176,severo-yeniseyskiy,60.3725,93.0408,-15.38,95,100,1.88,RU,1732409818
177,nyons,44.3333,5.1667,5.69,80,100,3.78,FR,1732409818
178,taraz,42.9,71.3667,-3.77,100,100,3.0,KZ,1732409818
179,qaqortoq,60.7167,-46.0333,-13.49,69,0,2.82,GL,1732409818
180,luanda,-8.8368,13.2343,25.36,86,100,3.04,AO,1732409818
181,tura,25.5198,90.2201,15.87,86,0,1.27,IN,1732409536
182,fort st. john,56.2499,-120.8529,-16.06,72,100,5.66,CA,1732409818
183,broken hill,-31.95,141.4333,26.81,48,100,4.12,AU,1732409818
184,orapa,-21.2833,25.3667,22.14,61,32,5.09,BW,1732409819
185,laguna,38.421,-121.4238,14.48,79,0,2.06,US,1732409819
186,codrington,-38.2667,141.9667,20.59,68,100,4.68,AU,1732409819
187,al jawf,29.5,38.75,16.26,51,100,2.37,SA,1732409819
188,port alfred,-33.5906,26.891,17.88,95,100,2.01,ZA,1732409819
189,weno,7.4515,151.8468,28.97,74,100,2.57,FM,1732409820
190,aasiaat,68.7098,-52.8699,-14.66,69,99,2.32,GL,1732409633
191,pithora,21.2667,82.5167,13.84,71,13,0.84,IN,1732409820
192,rajgir,25.0333,85.4167,14.12,57,0,2.59,IN,1732409820
193,chadan,51.2833,91.5833,-14.71,89,100,0.66,RU,1732409820
194,fortuna,40.5982,-124.1573,11.07,96,20,0.0,US,1732409821
195,belyy yar,53.6039,91.3903,-13.06,85,100,2.0,RU,1732409821
196,bereznik,62.8551,42.7072,-1.48,94,100,2.66,RU,1732409821
197,ryotsu-minato,38.0833,138.4333,8.1,61,51,3.17,JP,1732409818
198,cabedelo,-6.9811,-34.8339,26.37,77,25,6.13,BR,1732409821
199,elk city,35.412,-99.4043,15.99,77,0,5.14,US,1732409821
200,iyidere,41.0119,40.3619,12.81,90,100,4.52,TR,1732409822
201,at taj,24.2049,23.2857,16.87,31,4,3.72,LY,1732409822
202,wad rawah,15.1603,33.1397,24.14,21,0,5.39,SD,1732409822
203,udachny,66.4167,112.4,-28.22,95,91,1.07,RU,1732409700
204,gebeit,21.0667,36.3167,19.18,55,0,1.55,SD,1732409823
205,nuuk,64.1835,-51.7216,-5.07,53,6,0.89,GL,1732409823
206,taupo,-38.6833,176.0833,16.91,50,73,0.8,NZ,1732409823
207,uporovo,56.3109,66.2693,-4.53,77,97,5.13,RU,1732409823
208,mangrol,21.1167,70.1167,22.25,42,89,3.91,IN,1732409823
209,namibe,-15.1961,12.1522,23.45,83,100,1.09,AO,1732409824
210,geraldton,-28.7667,114.6,34.23,27,0,3.18,AU,1732409824
211,hawaiian paradise park,19.5933,-154.9731,26.52,80,100,4.12,US,1732409824
212,tyukhtet,56.5389,89.3011,-7.3,88,100,4.52,RU,1732409824
213,phillip island,-38.4835,145.231,17.45,97,100,1.28,AU,1732409824
214,luderitz,-26.6481,15.1594,14.76,85,0,5.89,NA,1732409824
215,pineville,31.3224,-92.4343,11.94,78,0,1.54,US,1732409539
216,al mijlad,11.0333,27.7333,21.33,18,6,6.25,SD,1732409825
217,piti village,13.4626,144.6933,31.03,77,20,7.72,GU,1732409825
218,salalah,17.0151,54.0924,23.31,67,100,0.52,OM,1732409825
219,zag,46.9441,99.165,-20.7,80,100,4.8,MN,1732409825
220,varna,43.2167,27.9167,-0.07,80,0,4.63,BG,1732409825
221,dingwall,57.5953,-4.4272,8.99,97,100,2.35,GB,1732409825
222,ceeldheer,3.8488,47.1806,25.94,82,60,4.63,SO,1732409826
223,lae,-6.7221,146.9847,29.17,62,22,3.26,PG,1732409826
224,winslow,35.0242,-110.6974,18.1,9,0,6.69,US,1732409612
225,mccook,40.2019,-100.6257,8.03,76,0,2.06,US,1732409826
226,gagliano del capo,39.8442,18.3695,8.68,61,0,5.66,IT,1732409826
227,petawawa,45.9001,-77.3328,2.66,85,100,1.34,CA,1732409826
228,villa bruzual,9.3328,-69.1208,23.54,94,100,1.51,VE,1732409827
229,pathein,16.7833,94.7333,22.55,83,100,1.87,MM,1732409827
230,oliva,38.9197,-0.1194,14.13,89,26,1.79,ES,1732409827
231,kerikeri,-35.2268,173.9474,17.55,63,100,1.24,NZ,1732409827
232,mareeba,-17.0,145.4333,28.47,65,39,4.4,AU,1732409828
233,saipan,15.1355,145.701,30.39,78,40,7.2,MP,1732409828
234,dudinka,69.4058,86.1778,-12.31,94,100,9.31,RU,1732409828
235,vikindu,-7.0067,39.2985,24.11,91,41,0.99,TZ,1732409828
236,klyuchi,52.2667,79.1667,-9.74,92,85,2.33,RU,1732409828
237,cockburn town,21.4612,-71.1419,25.98,83,75,4.63,TC,1732409796
238,thompson,55.7435,-97.8558,-14.91,85,0,4.12,CA,1732409829
239,dzhambeyty,50.2536,52.595,0.93,61,0,7.5,KZ,1732409829
240,mount isa,-20.7333,139.5,33.87,33,35,5.66,AU,1732409688
241,valparaiso,-33.0393,-71.6273,19.8,48,0,4.12,CL,1732409634
242,matoury,4.8483,-52.3317,24.98,100,40,1.03,GF,1732409624
243,port saint john's,-31.6229,29.5448,21.42,91,100,2.52,ZA,1732409830
244,makarska,43.2969,17.0178,4.11,37,0,2.09,HR,1732409830
245,roma,43.2128,-75.4557,5.94,99,100,2.68,US,1732409830
246,kodinsk,58.6881,99.1844,-23.08,100,11,1.26,RU,1732409830
247,chonchi,-42.6128,-73.8092,11.73,99,100,0.53,CL,1732409830
248,kingston,17.997,-76.7936,27.53,83,75,4.63,JM,1732409777
249,palmer,42.1584,-72.3287,6.95,60,20,6.17,US,1732409831
250,vadso,70.0744,29.7487,1.09,86,100,12.35,NO,1732409831
251,cabo san lucas,22.8909,-109.9124,25.42,51,41,2.24,MX,1732409831
252,amahai,-3.3333,128.9167,29.06,73,100,0.78,ID,1732409831
253,vila velha,-20.3297,-40.2925,22.19,84,75,2.68,BR,1732409410
254,walvis bay,-22.9575,14.5053,15.53,94,98,5.14,NA,1732409832
255,ocos,14.5094,-92.1933,26.32,75,8,1.6,GT,1732409832
256,vorgashor,67.5833,63.95,-6.34,82,100,3.2,RU,1732409832
257,flin flon,54.7682,-101.865,-13.09,78,75,7.72,CA,1732409832
258,arteche,12.2645,125.4048,27.44,88,87,4.93,PH,1732409833
259,pospelikha,51.95,81.7667,-10.57,96,100,3.26,RU,1732409833
260,tofol,5.3248,163.0078,28.67,74,100,5.22,FM,1732409833
261,kuanda,56.3161,116.0806,-11.63,96,100,1.93,RU,1732409833
262,oguz,41.0708,47.4583,5.74,81,0,1.4,AZ,1732409833
263,maragogi,-9.0122,-35.2225,24.62,79,59,5.5,BR,1732409833
264,charters towers,-20.1,146.2667,30.21,41,26,6.84,AU,1732409833
265,simanggang,1.2472,111.4528,25.99,94,20,1.03,MY,1732409834
266,ambovombe,-25.1667,46.0833,22.19,96,23,1.64,MG,1732409834
267,baranovichi,53.1327,26.0139,-1.7,87,56,5.46,BY,1732409834
268,pachino,36.7186,15.0907,14.29,55,14,4.59,IT,1732409834
269,port douglas,-16.4833,145.4667,26.83,73,67,5.82,AU,1732409834
270,kapuskasing,49.4169,-82.4331,-2.0,93,100,6.69,CA,1732409835
271,bhimunipatnam,17.8833,83.4333,21.73,80,100,2.91,IN,1732409835
272,magadan,59.5667,150.8,-10.45,67,1,2.74,RU,1732409835
273,kilju,40.9642,129.3278,4.44,26,74,0.55,KP,1732409835
274,onega,63.9061,38.1404,-4.62,91,58,3.41,RU,1732409835
275,monte argentario,42.4345,11.1195,6.88,70,69,6.69,IT,1732409835
276,xenia,39.6848,-83.9296,5.55,87,100,5.14,US,1732409835
277,ola,59.5833,151.2833,-12.12,74,2,3.79,RU,1732409836
278,misratah,32.3754,15.0925,19.24,53,5,4.62,LY,1732409836
279,happy valley-goose bay,53.3168,-60.3315,0.17,86,100,4.63,CA,1732409836
280,ketrzyn,54.0768,21.3753,-0.27,88,100,4.96,PL,1732409836
281,oriximina,-1.7656,-55.8661,28.8,50,46,1.49,BR,1732409593
282,seaside,36.6111,-121.8516,14.95,92,40,3.09,US,1732409836
283,callao,-12.0667,-77.15,21.51,77,75,5.14,PE,1732409515
284,khawr fakkan,25.3313,56.342,24.23,76,0,3.2,AE,1732409837
285,okene,7.5981,6.2318,23.97,48,1,0.6,NG,1732409837
286,kudahuvadhoo,2.6708,72.8944,27.71,76,100,4.68,MV,1732409837
287,hailey,43.5196,-114.3153,1.92,80,40,1.54,US,1732409837
288,alvaraes,-3.2208,-64.8042,27.23,77,100,1.01,BR,1732409837
289,kenai,60.5544,-151.2583,-2.7,89,0,2.06,US,1732409590
290,poso,-1.3959,120.7524,30.61,61,97,0.45,ID,1732409838
291,bluefields,12.0137,-83.7635,25.49,72,100,4.77,NI,1732409838
292,burela de cabo,43.65,-7.4,16.01,59,99,6.04,ES,1732409838
293,romblon,12.5751,122.2708,27.69,79,99,8.1,PH,1732409838
294,gharo,24.7424,67.5856,24.37,69,13,2.6,PK,1732409838
295,barra de santo antonio,-9.4047,-35.5072,25.21,79,98,8.04,BR,1732409838
296,bulakamba,-6.8748,108.9559,28.68,71,100,2.81,ID,1732409610
297,kirensk,57.7853,108.1119,-17.13,93,100,4.14,RU,1732409839
298,filadelfia,39.9523,-75.1638,9.75,71,75,5.66,US,1732409553
299,port-vila,-17.7338,168.3219,27.78,78,100,3.09,VU,1732409839
300,bardai,11.65,7.2333,17.34,25,3,4.05,NG,1732409839
301,buala,-8.145,159.5921,30.29,66,100,1.53,SB,1732409839
302,yaren,-0.5472,166.916,28.12,72,95,5.14,NR,1732409839
303,kristiansund,63.1115,7.732,0.36,86,75,2.06,NO,1732409840
304,oistins,13.0667,-59.5333,27.05,89,20,5.66,BB,1732409840
305,santa cruz,-17.8,-63.1667,24.7,94,75,1.54,BO,1732409640
306,magdalena,14.1999,121.429,27.34,80,90,3.99,PH,1732409840
307,yeed,4.55,43.0333,27.35,47,14,3.21,SO,1732409840
308,island harbour,50.724,-1.2758,14.46,93,100,6.26,GB,1732409840
309,myitkyina,25.3833,97.4,16.15,80,0,1.18,MM,1732409840
310,nagqu,31.5,92.0,-6.2,59,100,7.31,CN,1732409841
311,songling,31.1933,120.7176,13.7,58,10,3.09,CN,1732409841
312,makum,27.5,95.45,15.43,93,99,0.4,IN,1732409841
313,katsuura,35.1333,140.3,12.28,63,100,5.73,JP,1732409805
314,bikenibeu village,1.3673,173.1241,31.98,66,20,5.66,KI,1732409841
315,tekkalakote,15.5333,76.8833,17.8,73,100,0.53,IN,1732409841
316,uturoa,-16.7333,-151.4333,27.31,79,37,6.04,PF,1732409841
317,kosciusko,33.0576,-89.5876,9.04,64,0,0.97,US,1732409842
318,"las vegas, santa barbara",36.175,-115.1372,22.38,37,100,10.29,US,1732409776
319,flying fish cove,-10.4217,105.6791,27.84,76,100,2.33,CX,1732409842
320,arraial do cabo,-22.9661,-42.0278,18.98,100,75,0.0,BR,1732409842
321,farsan,32.2569,50.561,-5.98,35,0,2.46,IR,1732409800
322,akureyri,65.6835,-18.0878,-4.04,80,75,3.09,IS,1732409843
323,plouzane,48.3833,-4.6167,16.61,80,100,13.89,FR,1732409843
324,ar ruways,24.1103,52.7306,24.23,67,38,4.7,AE,1732409843
325,carnarvon,-24.8667,113.6333,24.99,69,100,4.07,AU,1732409843
326,yanta,36.2411,115.6672,7.67,52,100,4.38,CN,1732409843
327,murrells inlet,33.551,-79.0414,12.03,66,0,1.54,US,1732409642
328,aykhal,66.0,111.5,-26.9,97,90,1.64,RU,1732409843
329,dawei,14.0833,98.2,25.3,75,100,5.1,MM,1732409844
330,tsiombe,-25.3,45.4833,21.51,96,4,0.62,MG,1732409844
331,prado,-17.3411,-39.2208,22.21,92,100,6.56,BR,1732409844
332,taroa,8.7058,171.2275,26.03,84,100,11.52,MH,1732409844
333,al ghayzah,16.2079,52.176,23.32,74,40,2.25,YE,1732409844
334,northam,51.0333,-4.2167,15.34,97,100,16.82,GB,1732409844
335,niafunke,15.9322,-3.9906,24.28,15,0,4.43,ML,1732409844
336,n'zeto,-7.2312,12.8666,25.74,84,96,0.23,AO,1732409845
337,zeya,53.75,127.2667,-9.68,91,100,0.76,RU,1732409727
338,las tunas,20.9617,-76.9511,20.2,84,76,3.04,CU,1732409845
339,kailua-kona,19.6406,-155.9956,28.49,73,0,3.6,US,1732409845
340,el granada,37.5027,-122.4694,13.9,85,0,5.14,US,1732409845
341,inhambane,-23.865,35.3833,24.36,87,84,3.0,MZ,1732409845
342,kalmunai,7.4167,81.8167,24.55,90,100,1.76,LK,1732409845
343,east london,-33.0153,27.9116,20.36,85,19,3.59,ZA,1732409846
344,visavadar,21.3833,70.6833,19.29,45,94,2.14,IN,1732409846
345,praia da vitoria,38.7333,-27.0667,16.14,72,75,9.68,PT,1732409846
346,carahue,-38.7,-73.1667,14.45,80,100,1.93,CL,1732409846
347,ust'-kulom,61.6864,53.6902,4.27,86,100,6.83,RU,1732409846
348,nar'yan-mar,67.6713,53.087,-2.85,96,100,7.03,RU,1732409846
349,ramanuj ganj,23.8,83.7,10.81,65,0,1.6,IN,1732409847
350,aras-asan,8.8908,126.3033,27.18,84,91,3.54,PH,1732409847
351,pangody,65.85,74.4859,-7.72,92,100,4.95,RU,1732409847
352,lazaro cardenas,17.9583,-102.2,26.7,79,1,1.63,MX,1732409847
353,karratha,-20.7377,116.8463,31.05,46,6,3.26,AU,1732409847
354,aleksandrovsk-sakhalinskiy,50.8975,142.1561,-1.28,94,100,10.4,RU,1732409847
355,polyarnyy,69.1989,33.4478,-2.65,84,35,14.03,RU,1732409848
356,rikaze,29.25,88.8833,-1.24,48,0,1.4,CN,1732409848
357,benemerito de las americas,16.5167,-90.6439,19.71,83,94,0.53,MX,1732409848
358,toritama,-8.0067,-36.0567,21.94,78,16,2.35,BR,1732409848
359,celle,52.6226,10.0805,6.7,93,100,5.66,DE,1732409848
360,anupgarh,29.1911,73.2086,20.12,36,5,2.79,IN,1732409848
361,san ignacio,17.1561,-89.0714,20.08,94,0,0.0,BZ,1732409848
362,puerto quijarro,-17.7833,-57.7667,25.34,88,100,0.6,BO,1732409849
363,ketchikan,55.3422,-131.6461,2.99,35,0,3.09,US,1732409849
364,meadow lake,34.8014,-106.5436,10.94,40,0,2.59,US,1732409849
365,zima,53.9202,102.0442,-14.01,80,93,3.26,RU,1732409849
366,post,33.1909,-101.3782,16.1,29,0,5.06,US,1732409849
367,enid,36.3956,-97.8784,17.09,65,0,5.66,US,1732409849
368,novyy urgal,51.0736,132.5642,-15.43,84,100,0.58,RU,1732409849
369,qaisumah,28.3112,46.1273,16.98,48,20,2.06,SA,1732409850
370,fort bragg,35.139,-79.006,8.91,72,0,2.06,US,1732409850
371,enewetak,11.3474,162.3373,28.3,78,50,7.68,MH,1732409850
372,montmagny,48.9734,2.3469,12.27,70,0,6.69,FR,1732409850
373,fale old settlement,-9.3852,-171.2468,28.88,71,100,7.93,TK,1732409850
374,port lincoln,-34.7333,135.8667,19.35,73,100,2.92,AU,1732409850
375,tazacorte,28.629,-17.9293,19.54,87,0,3.13,ES,1732409851
376,bukama,-9.2,25.85,20.86,98,99,0.42,CD,1732409851
377,seorinarayan,21.7333,82.5833,13.36,57,29,1.88,IN,1732409851
378,balqash,46.8481,74.995,-1.78,65,0,9.5,KZ,1732409851
379,beira,-19.8436,34.8389,27.05,69,40,4.12,MZ,1732409851
380,hemsby,52.6971,1.6918,15.13,89,100,11.85,GB,1732409851
381,lincoln city,44.9582,-124.0179,8.16,94,100,1.34,US,1732409851
382,kourou,5.1552,-52.6478,25.75,89,54,2.45,GF,1732409851
383,umm ruwaba,12.9061,31.2158,20.98,20,3,4.26,SD,1732409852
384,nevada,39.2502,-116.7512,-0.32,90,100,4.38,US,1732409852
385,egilsstadir,65.2653,-14.3948,-4.05,93,100,7.2,IS,1732409852
386,comodoro rivadavia,-45.8667,-67.5,20.92,23,0,3.6,AR,1732409738
387,salinopolis,-0.6136,-47.3561,26.9,77,0,4.95,BR,1732409852
388,mersa matruh,31.3525,27.2453,21.11,64,40,9.26,EG,1732409852
389,lacchiarella,45.3243,9.139,7.47,71,75,1.54,IT,1732409853
390,yinchuan,38.4681,106.2731,2.62,87,100,3.78,CN,1732409853
391,jayapura,-2.5333,140.7,31.66,57,53,1.12,ID,1732409853
392,khabary,53.6259,79.5345,-8.0,89,100,3.17,RU,1732409853
393,beaufort west,-32.3567,22.583,18.17,69,2,3.63,ZA,1732409853
394,wenchang,30.904,118.4887,12.53,65,35,3.86,CN,1732409853
395,lisakovsk,52.5369,62.4936,-7.98,84,2,2.42,KZ,1732409853
396,mount gambier,-37.8333,140.7667,21.78,65,100,2.8,AU,1732409854
397,dalandzadgad,43.5708,104.425,-5.41,81,90,5.85,MN,1732409854
398,tortoli,39.9256,9.6572,12.3,67,0,7.72,IT,1732409854
399,ulsteinvik,62.3432,5.8487,2.09,81,100,4.02,NO,1732409854
400,kushiro,42.975,144.3747,0.53,55,20,2.06,JP,1732409854
401,sabang,5.8933,95.3214,26.57,87,100,8.43,ID,1732409854
402,zapala,-38.8992,-70.0544,15.77,44,0,7.53,AR,1732409620
403,jawf al maqbabah,13.8378,45.8349,20.06,79,9,0.88,YE,1732409855
404,howard springs,-12.497,131.047,28.88,87,100,0.72,AU,1732409855
405,kovalam,8.3667,76.9967,26.05,89,40,0.51,IN,1732409855
406,rongelap,11.1635,166.8941,27.76,80,100,8.38,MH,1732409855
407,tanjung pandan,-2.75,107.65,26.52,84,100,1.11,ID,1732409855
408,zagora,30.3484,-5.8365,18.06,34,0,1.46,MA,1732409855
409,hadibu,12.65,54.0333,24.93,78,48,2.81,YE,1732409856
410,takoradi,4.8845,-1.7554,26.08,83,94,0.99,GH,1732409715
411,new norfolk,-42.7826,147.0587,16.07,53,16,2.63,AU,1732409856
412,sai buri,6.7013,101.6168,23.84,92,100,1.73,TH,1732409856
413,rawson,-43.3002,-65.1023,20.16,40,0,4.12,AR,1732409856
414,kidal,18.4411,1.4078,22.79,20,1,3.93,ML,1732409856
415,ylitornio,66.3089,23.6773,-1.55,77,97,4.37,FI,1732409856
416,barh,25.4833,85.7167,14.8,49,0,2.58,IN,1732409857
417,wellington,-41.2866,174.7756,17.81,59,2,7.72,NZ,1732409857
418,miri,4.4148,114.0089,27.08,94,20,0.0,MY,1732409857
419,margate,51.3813,1.3862,13.82,81,100,1.79,GB,1732409857
420,orcutt,34.8653,-120.436,14.89,89,100,4.63,US,1732409857
421,sao borja,-28.6606,-56.0044,23.78,64,0,4.64,BR,1732409858
422,vorkuta,67.5,64.0,-6.16,82,100,2.99,RU,1732409858
423,coracora,-15.0333,-73.7833,11.84,63,100,1.07,PE,1732409858
424,bel ombre,-4.6167,55.4167,25.91,83,20,0.0,SC,1732409858
425,canavieiras,-15.675,-38.9472,22.74,97,100,2.74,BR,1732409672
426,stockerau,48.383,16.1996,2.3,75,100,0.89,AT,1732409859
427,fostoria,41.157,-83.4169,6.07,88,100,3.13,US,1732409859
428,katabu,-4.9333,122.5167,31.68,59,99,1.61,ID,1732409859
429,sona,45.4388,10.8255,2.69,80,20,1.54,IT,1732409859
430,gitarama,-2.0744,29.7567,13.77,95,98,1.3,RW,1732409859
431,tralee,52.2704,-9.7026,9.63,84,100,9.6,IE,1732409859
432,tabou,4.423,-7.3528,25.65,87,75,2.36,CI,1732409860
433,sirte,31.2089,16.5887,19.32,56,19,5.15,LY,1732409860
434,akhtubinsk,48.2795,46.1722,5.81,73,99,8.45,RU,1732409860
435,minas de marcona,-15.2119,-75.1103,15.25,78,98,4.95,PE,1732409860
436,alofi,-19.0595,-169.9187,28.94,61,75,5.14,NU,1732409860
437,vilyuysk,63.7553,121.6247,-15.54,96,100,2.83,RU,1732409860
438,foindu,7.4108,-11.5422,24.43,89,0,0.6,SL,1732409860
439,mbanza kongo,-6.267,14.2401,20.82,97,100,0.8,AO,1732409861
440,nowshahr,36.649,51.496,7.97,93,20,1.03,IR,1732409861
441,ginir,7.1333,40.7,13.87,78,30,1.4,ET,1732409861
442,quwaysina,30.5648,31.1578,15.3,69,0,2.65,EG,1732409861
443,cooma,-36.2333,149.1333,27.59,29,98,5.07,AU,1732409861
444,obihiro,42.9172,143.2044,2.67,60,40,3.6,JP,1732409815
445,volchikha,52.0333,80.3833,-11.65,97,97,2.0,RU,1732409862
446,nikolayevsk-on-amure,53.1406,140.73,-3.93,93,100,2.26,RU,1732409862
447,essaouira,31.5125,-9.77,28.72,21,100,6.69,MA,1732409713
448,villa riva,19.1807,-69.9132,23.91,97,100,0.96,DO,1732409862
449,big spring,32.2504,-101.4787,19.25,37,0,5.14,US,1732409750
450,bogale,16.2833,95.4,23.15,86,73,2.82,MM,1732409862
451,ocean city,39.2776,-74.5746,8.92,72,83,3.58,US,1732409863
452,xique xique,-10.8217,-42.7311,24.64,81,99,4.81,BR,1732409592
453,sao vicente,-23.9631,-46.3919,22.19,26,68,3.13,BR,1732409863
454,altay,47.8667,88.1167,-13.44,64,0,2.89,CN,1732409863
455,barroquinha,-3.0189,-41.1361,25.23,81,0,2.67,BR,1732409863
456,palu,-0.8917,119.8707,30.27,75,100,0.25,ID,1732409854
457,kavieng,-2.5744,150.7967,29.39,74,30,4.03,PG,1732409632
458,kalemie,-5.9475,29.1947,20.63,94,100,2.6,CD,1732409864
459,bagnara calabra,38.2885,15.8078,10.62,41,0,2.85,IT,1732409864
460,bowie,33.4501,-94.4335,11.79,71,0,2.91,US,1732409796
461,cradock,-32.1642,25.6192,17.14,85,7,0.61,ZA,1732409864
462,pontevedra,42.431,-8.6444,19.5,52,100,5.91,ES,1732409633
463,lusambo,-4.9667,23.45,20.38,97,100,0.61,CD,1732409865
464,haiku-pauwela,20.9219,-156.3051,26.25,74,20,7.6,US,1732409865
465,esquina,-30.0144,-59.5272,22.0,80,0,2.09,AR,1732409865
466,fiambala,-27.6871,-67.6149,24.72,47,0,3.01,AR,1732409865
467,tabas,33.5959,56.9244,12.79,35,55,1.65,IR,1732409865
468,melipilla,-33.7,-71.2167,17.44,63,0,2.66,CL,1732409768
469,banyo,6.75,11.8167,18.39,48,97,1.41,CM,1732409865
470,bondo,3.8146,23.6866,19.63,75,83,0.48,CD,1732409866
471,ulmeni,47.4667,23.3,-1.91,96,38,1.79,RO,1732409866
472,arinos,-15.9169,-46.1056,22.16,95,100,1.95,BR,1732409866
473,hotan,37.0997,79.9269,2.97,49,28,1.52,CN,1732409866
474,khandyga,62.6667,135.6,-27.01,91,33,1.09,RU,1732409866
475,sitka,57.0531,-135.33,2.94,30,0,0.0,US,1732409866
476,camayenne,9.535,-13.6878,28.05,89,20,1.03,GN,1732409866
477,al jumum,21.6169,39.6981,25.27,67,13,1.24,SA,1732409867
478,dem'yanovo,60.3511,47.0842,6.5,90,100,7.39,RU,1732409867
479,chibougamau,49.9168,-74.3659,-0.21,93,100,1.03,CA,1732409867
480,santana,-0.0583,-51.1817,29.1,79,0,4.12,BR,1732409867
481,richards bay,-28.783,32.0377,22.72,92,100,1.82,ZA,1732409867
482,mangochi,-14.4782,35.2645,24.76,68,8,1.31,MW,1732409868
483,arauco,-37.2463,-73.3175,12.55,97,88,0.78,CL,1732409868
484,kurumkan,54.3,110.3,-14.25,85,22,2.37,RU,1732409868
485,tirumullaivasal,11.2333,79.8333,23.86,91,100,4.42,IN,1732409868
486,sinop,41.7711,34.8709,2.07,100,100,7.2,TR,1732409868
487,mucumpiz,8.4167,-71.1333,13.51,91,87,1.39,VE,1732409868
488,bridgewater,44.3835,-64.5155,6.82,94,100,4.63,CA,1732409868
489,boa vista,2.8197,-60.6733,30.99,55,0,1.54,BR,1732409869
490,borzya,50.3833,116.5167,-12.32,94,100,2.02,RU,1732409869
491,ash shafa,21.0694,40.3119,13.47,72,9,0.68,SA,1732409869
492,humberto de campos,-2.5983,-43.4611,24.71,85,37,1.69,BR,1732409869
493,wuhai,39.6647,106.8122,1.27,54,100,5.64,CN,1732409869
494,breves,-1.6822,-50.4803,26.48,54,23,2.1,BR,1732409869
495,pochinok,54.4068,32.4407,-7.2,95,34,3.0,RU,1732409870
496,usinsk,65.9939,57.5281,-2.34,96,100,8.12,RU,1732409870
497,lesnikovo,55.2822,65.3175,-6.53,80,88,5.59,RU,1732409870
498,tekkali,18.6167,84.2333,18.42,79,100,1.76,IN,1732409870
499,eldivan,40.5298,33.499,-0.67,91,100,3.85,TR,1732409870
500,peniche,39.3558,-9.3811,19.0,71,100,11.7,PT,1732409870
501,aberdeen,57.1437,-2.0981,11.22,100,100,6.17,GB,1732409870
502,prince george,53.9166,-122.753,-9.31,88,100,5.66,CA,1732409871
503,novo aripuana,-5.1206,-60.3797,26.21,75,28,0.27,BR,1732409591
504,timimoun,29.2639,0.231,15.21,47,0,3.09,DZ,1732409871
505,najran,17.4924,44.1277,16.04,69,0,1.78,SA,1732409871
506,moab,38.5733,-109.5498,8.03,21,64,2.83,US,1732409871
507,gadzhiyevo,69.2551,33.3362,-2.78,86,33,13.98,RU,1732409871
508,san jose de jachal,-30.2406,-68.7469,25.68,45,0,1.33,AR,1732409871
509,nadi,-17.8,177.4167,30.0,66,40,5.66,FJ,1732409872
510,keflavik,64.0049,-22.5624,-2.76,59,0,10.8,IS,1732409872
511,la passe,45.5549,-0.8967,11.41,73,100,10.03,FR,1732409872
512,homer,59.6425,-151.5483,1.56,73,0,1.34,US,1732409873
513,zhigalovo,54.8097,105.1578,-15.61,89,100,2.91,RU,1732409873
514,novosergiyevka,52.0934,53.6528,0.22,60,9,6.32,RU,1732409873
515,chivhu,-19.0211,30.8922,20.28,59,100,2.67,ZW,1732409873
516,aioun,16.6614,-9.6149,24.28,13,5,3.98,MR,1732409873
517,black point,-34.6187,137.8972,18.73,88,100,4.38,AU,1732409873
518,kuala belait,4.5833,114.1833,26.72,85,100,1.9,BN,1732409874
519,calamar,10.2511,-74.9146,24.87,92,100,2.12,CO,1732409874
520,twon-brass,4.3151,6.2418,26.98,81,98,3.65,NG,1732409874
521,afaahiti,-17.75,-149.2833,25.42,85,100,6.93,PF,1732409874
522,mumford,5.2618,-0.759,25.85,85,8,1.43,GH,1732409874
523,beidao,34.5686,105.8933,4.87,63,100,3.04,CN,1732409874
524,nuku'alofa,-21.1333,-175.2,26.19,83,75,4.63,TO,1732409874
525,lerwick,60.1545,-1.1494,6.89,93,100,19.03,GB,1732409875
526,priozersk,61.0393,30.1291,-2.22,86,77,4.07,RU,1732409875
527,shingu,33.7333,135.9833,12.26,51,1,2.24,JP,1732409820
528,kendari,-3.945,122.4989,30.28,67,100,1.32,ID,1732409875
529,timbuktu,16.7735,-3.0074,24.52,14,0,4.61,ML,1732409875
530,norfolk county,42.1668,-71.2495,7.51,75,74,1.79,US,1732409868
531,kargasok,59.0556,80.8572,-5.74,96,100,2.63,RU,1732409875
532,shalqar,47.8333,59.6,0.43,60,0,6.55,KZ,1732409876
533,hobyo,5.3505,48.5268,26.78,77,46,6.14,SO,1732409876
534,newberry,34.2746,-81.6187,10.03,88,1,1.83,US,1732409704
535,masterton,-40.9597,175.6575,18.31,52,100,1.91,NZ,1732409691
536,crucecita,-28.95,-58.9833,22.76,74,0,2.62,AR,1732409876
537,butembo,0.15,29.2833,13.63,98,86,0.95,CD,1732409876
538,ancud,-41.8697,-73.8203,11.28,98,100,1.58,CL,1732409876
539,castillos,-34.1667,-53.8333,17.94,82,0,4.68,UY,1732409443
540,phek,25.6667,94.5,9.03,97,25,0.59,IN,1732409771
541,bamboo flat,11.7,92.7167,29.05,79,40,3.6,IN,1732409877
542,kuytun,54.3419,101.5036,-15.37,85,93,3.32,RU,1732409877
543,galliano,29.4422,-90.2992,11.0,87,0,0.0,US,1732409877
544,lata,40.1629,-8.3327,15.93,54,100,7.4,PT,1732409877
545,dapa,9.7594,126.0531,27.34,84,35,5.15,PH,1732409878
546,zaozersk,69.4005,32.4476,-2.6,88,99,14.25,RU,1732409878
547,fortaleza,-3.7227,-38.5247,27.34,83,20,3.09,BR,1732409878
548,colonel hill,22.7667,-74.2167,24.26,59,100,5.71,BS,1732409878
549,phetchaburi,12.9667,99.5833,21.71,80,38,1.97,TH,1732409878
550,sal rei,16.1833,-22.9167,25.22,70,3,4.76,CV,1732409878
551,hutchinson,38.0608,-97.9298,9.97,81,0,3.09,US,1732409370
552,labasa,-16.4167,179.3833,30.19,60,79,4.61,FJ,1732409879
553,nadym,65.5333,72.5167,-6.63,90,100,5.12,RU,1732409879
554,gohadi,26.4261,78.4447,16.06,46,4,1.5,IN,1732409879
555,imperatriz,-5.5264,-47.4917,27.37,55,2,1.66,BR,1732409879
556,medina,24.4686,39.6142,26.24,50,0,1.54,SA,1732409879
557,ankazoabo,-22.2833,44.5167,21.24,80,0,2.45,MG,1732409879
558,presas,20.1589,-99.2528,14.12,35,0,1.92,MX,1732409880
559,idfu,24.9803,32.8747,18.81,48,0,4.48,EG,1732409880
560,sakata,38.9167,139.855,8.1,66,75,3.6,JP,1732409880
561,goure,13.9835,10.2704,20.02,22,0,3.98,NE,1732409880
562,buka,40.8108,69.1986,5.78,46,0,1.06,UZ,1732409880
